"name","name_1","lon","lat","pm25_mean","pm25_sd","pm25_q2.5","pm25_q97.5"
"Álvaro Obregón","Distrito Federal",-99.2468197105554,19.3361755683417,17.3058169637113,1.02097694836451,16.5974192720348,18.0126740526245
"Azcapotzalco","Distrito Federal",-99.1821069383063,19.4853286106988,18.4045462992185,1.01953184325815,17.7440607649394,19.1213221579533
"Benito Juárez","Distrito Federal",-99.1611346406657,19.3806423460731,17.9172125147747,1.02381397727938,17.1370805367657,18.7566153642697
"Coyoacán","Distrito Federal",-99.1503763460519,19.3266672062058,18.1021746175701,1.01433599340791,17.6092099583212,18.6298171253599
"Cuajimalpa de Morelos","Distrito Federal",-99.3107285227553,19.3246343032292,17.6263581038586,1.02610633116859,16.7242246054722,18.5361776110274
"Cuauhtémoc","Distrito Federal",-99.1490557563125,19.4313734281388,17.0281668400329,1.03218838805205,16.0049749163162,18.1143549605103
"Gustavo A. Madero","Distrito Federal",-99.115864206768,19.5040652074179,17.6089063307163,1.02246235463034,16.8317439378173,18.3933861918679
"Iztacalco","Distrito Federal",-99.0943297980616,19.3969118970341,17.3961607059122,1.01729862388821,16.8129812960127,17.9843246015294
"Iztapalapa","Distrito Federal",-99.0567986611672,19.3491632633327,18.3420454842551,1.0188331437531,17.706014828629,19.0389003558123
"La Magdalena Contreras","Distrito Federal",-99.268412889974,19.2689765065062,17.9285686251104,1.02443533582652,17.0977462826587,18.8103733128011
"Miguel Hidalgo","Distrito Federal",-99.2045669104735,19.4280623718692,17.4794730736964,1.02371954071462,16.680238317813,18.3205630219851
"Milpa Alta","Distrito Federal",-99.0510954209536,19.1394565988295,18.0265217914267,1.03169122685366,16.912395550483,19.202897451322
"Tláhuac","Distrito Federal",-99.0028163014103,19.276994771654,19.546087308573,1.02213548512756,18.7339368641547,20.4198276294442
"Tlalpan","Distrito Federal",-99.2062207897522,19.1983396650094,18.2059331340524,1.02646181594617,17.278997987916,19.2064260762462
"Venustiano Carranza","Distrito Federal",-99.0931057950148,19.4304954545038,17.4072732119651,1.01909360507407,16.7541183287604,18.0490127391394
"Xochimilco","Distrito Federal",-99.090363604183,19.2451450441256,18.6654722070362,1.02070195428982,17.9437291204415,19.451703060404
"Acambay de Ruíz Castañeda","México",-99.8715302596316,19.9729416920453,17.6346920553854,1.03787865039415,16.3522953656935,19.0102242306636
"Acolman","México",-98.9198662572085,19.6337761283412,17.3972923057344,1.03039464920493,16.3492312663769,18.4878616555414
"Aculco","México",-99.8333466088885,20.1156764721164,17.6346363929751,1.03787963002068,16.3522003020523,19.0101942536384
"Almoloya de Alquisiras","México",-99.866795535061,18.8329588652449,17.6346994578149,1.03787893609763,16.3522582986014,19.0102824446238
"Almoloya de Juárez","México",-99.8294539481415,19.4055778149158,17.6352713955763,1.03785286503617,16.3537608944862,19.0102485002629
"Almoloya del Río","México",-99.4918729889193,19.1587797942465,17.6517003449938,1.03695851591459,16.3904550037463,18.9922806842372
"Amanalco","México",-99.9883931998242,19.2509314813714,17.6347154412909,1.03787754605994,16.3523397430025,19.010258993752
"Amatepec","México",-100.266801523132,18.7029925185393,17.6346511789434,1.03788099825635,16.3521705562335,19.010260860869
"Amecameca","México",-98.7164909764485,19.1249499951642,17.6791377047941,1.03742433290012,16.4124847957431,19.0359541719544
"Apaxco","México",-99.1478989237342,19.9845089238364,17.344809749175,1.0354880705709,16.1494924544507,18.596608894476
"Atenco","México",-98.9615707804515,19.5456485810611,17.5858947478864,1.02675062451559,16.6943463901021,18.499319985141
"Atizapán","México",-99.4999751566194,19.1755455565861,17.6505350274887,1.03695758495562,16.3894246123099,18.990731825432
"Atizapán de Zaragoza","México",-99.2740439886206,19.5648072852275,18.5023002221668,1.02580195554851,17.6331261835035,19.5023876683873
"Atlacomulco","México",-99.8460083814771,19.809957013243,17.6349050020173,1.03787323177023,16.3527178542253,19.0102853678103
"Atlautla","México",-98.7170646729854,19.0311080864578,17.6557827881903,1.03766010724639,16.379095636272,19.0229064578367
"Axapusco","México",-98.7212962762461,19.763057201737,17.4826788810072,1.03637873863886,16.2516223892848,18.7812166440395
"Ayapango","México",-98.81635586345,19.1242909339143,17.7496342303523,1.03670773803663,16.4989147740501,19.0810311654498
"Calimaya","México",-99.6432754133488,19.165530453654,17.6374843070379,1.0377086688528,16.3592762437955,19.0103779981218
"Capulhuac","México",-99.4597383125319,19.2087020462631,17.6612011209414,1.03618301802744,16.4216884564346,18.9621323154753
"Chalco","México",-98.8316954377758,19.2536014219007,17.9818225583617,1.03446707532618,16.8016522782106,19.2393870664284
"Chapa de Mota","México",-99.5509391080675,19.8257553506514,17.6386676596242,1.03771565961513,16.3621169756599,19.0087494204063
"Chapultepec","México",-99.5504536805964,19.2065058376275,17.6436339803368,1.03728324785619,16.373433229857,19.0019924366035
"Chiautla","México",-98.8833849409547,19.5730368862626,17.5651511389165,1.03115632546733,16.4928372105384,18.6877458683299
"Chicoloapan","México",-98.8781075843618,19.4054171658694,18.1059176688722,1.02905657419687,17.1024515449006,19.1757468445723
"Chiconcuac","México",-98.8966959211643,19.5562790861199,17.5873913862345,1.03000213194006,16.5623665719016,18.6727319323524
"Chimalhuacán","México",-98.9471670082334,19.4162357325345,18.269325094192,1.02115446542663,17.5019244919842,19.014063357767
"Coacalco de Berriozábal","México",-99.1023955041119,19.6262899752824,17.7905779386211,1.02481685429136,16.94216419856,18.7029590916006
"Coatepec Harinas","México",-99.7982569400371,18.9463281213227,17.6348498746897,1.03787178221331,16.3525577040025,19.0103361297623
"Cocotitlán","México",-98.8588949802993,19.2260295241873,18.0314239082466,1.03410216531467,16.8573544130149,19.2750854159325
"Coyotepec","México",-99.2222053425533,19.7899844906921,17.5104360367814,1.03447741662315,16.3380447916301,18.7410391347088
"Cuautitlán","México",-99.1594239924881,19.7082385932978,17.5771539919765,1.03053809721747,16.5426223773138,18.678302094191
"Cuautitlán Izcalli","México",-99.2251856363797,19.6545670257982,18.0230942434416,1.0291773139267,17.0436131926551,19.1101633658923
"Donato Guerra","México",-100.184843553572,19.3164419825942,17.6346579678871,1.03788067684706,16.3521878455933,19.0102609512231
"Ecatepec de Morelos","México",-99.0432117359573,19.5727837336625,17.7896671032955,1.02865824802656,16.7989240419307,18.7768947243015
"Ecatzingo","México",-98.7366496037591,18.9680219599022,17.6484474754072,1.03773166239209,16.3682789144599,19.0186246825885
"El Oro","México",-100.075490532005,19.7988157978863,17.6346696065197,1.03788042668171,16.3522107576607,19.0102630861283
"Huehuetoca","México",-99.2550310328557,19.8226285901806,17.5410243339589,1.03563930033017,16.3287398048208,18.8160923083377
"Hueypoxtla","México",-99.0280077529409,19.9524123470462,16.637612976874,1.03066442812877,15.6242763823683,17.6786393332581
"Huixquilucan","México",-99.3395276021989,19.3831008234713,17.6696378380984,1.02898514113158,16.6877718520303,18.7251684108617
"Isidro Fabela","México",-99.4403760818743,19.5542432813964,17.7361373798096,1.03548779792523,16.5123449233627,19.0352169357059
"Ixtapaluca","México",-98.7790459506046,19.3427969336411,17.8365789128579,1.03519876070646,16.6348999415544,19.1132336806753
"Ixtapan de la Sal","México",-99.6908409961752,18.8506963946608,17.6349968161086,1.03786779668466,16.352740304207,19.0104433930831
"Ixtapan del Oro","México",-100.277849909034,19.2574263839338,17.6346529250484,1.03788091219771,16.3521751138914,19.010260830518
"Ixtlahuaca","México",-99.8069629972664,19.5898510213528,17.6355920522022,1.037852138748,16.3542071021126,19.0104447805632
"Jaltenco","México",-99.0889302302855,19.7387167303917,17.0320036103265,1.02906998432882,16.050174569394,18.0277610386863
"Jilotepec","México",-99.5965692940081,20.0191028817504,17.6340200371021,1.03785298189185,16.3524019116048,19.0085094376659
"Jilotzingo","México",-99.3904369658594,19.5060472097115,17.8127564026453,1.03316282557874,16.6750746513415,19.0295475916861
"Jiquipilco","México",-99.6416035227432,19.5860372328474,17.6422087542072,1.03767130111887,16.3678801396049,19.0120448180868
"Jocotitlán","México",-99.8234783630356,19.7173348780185,17.6351967408598,1.0378656096409,16.3533057904812,19.0103742842288
"Joquicingo","México",-99.5144815102683,19.0675669920083,17.6439091625678,1.03748019936813,16.3690041955714,19.0142733475478
"Juchitepec","México",-98.9040824368945,19.0935939337624,17.7912588746005,1.03611001119703,16.5546798927914,19.1029199213586
"La Paz","México",-98.947698571052,19.3610186169227,19.3774529851852,1.02225878093706,18.562980652238,20.2304261495969
"Lerma","México",-99.4748581860969,19.3450740541521,17.6569923833692,1.03587060267866,16.4288420918279,18.9418334287014
"Luvianos","México",-100.406484517151,18.940817941276,17.634651068233,1.03788100232073,16.3521704003941,19.0102607851209
"Malinalco","México",-99.4856424500741,18.8819180405939,17.637731877347,1.03778299125123,16.3566287302121,19.012100594691
"Melchor Ocampo","México",-99.1335471051927,19.709650133969,17.4641426050756,1.0299265970284,16.441417785251,18.5389311910937
"Metepec","México",-99.5883660568185,19.2473854569242,17.6408027842037,1.03744223696182,16.3687675268921,19.0082223504445
"Mexicaltzingo","México",-99.5840223991634,19.2112474700394,17.640787241545,1.03746953424978,16.3681203720307,19.0096055321133
"Morelos","México",-99.6417698962178,19.74343802802,17.6386161793841,1.037774753424,16.3601971000919,19.0110374905679
"Naucalpan de Juárez","México",-99.2926053942304,19.4712531456005,18.0712012472909,1.02516021303332,17.2514269244756,18.990860615914
"Nextlalpan","México",-99.0745243874789,19.7299417643226,17.0018387404011,1.02856055529083,16.0379686805296,17.9804443005742
"Nezahualcóyotl","México",-99.0226995164195,19.4225786547758,17.2764884096077,1.01878129727994,16.6617010332388,17.9094865367552
"Nicolás Romero","México",-99.3917279339293,19.6249704994422,17.7853940788795,1.03490549435767,16.5864973194508,19.0717411992297
"Nopaltepec","México",-98.7170891235639,19.812314331908,17.4693710712861,1.03641226121546,16.2407720120491,18.7665534390809
"Ocoyoacac","México",-99.4066406590913,19.2594662306813,17.6787683316621,1.03411891573668,16.5100980704873,18.8997341160054
"Ocuilan","México",-99.3964162925341,19.0092340959872,17.6556855752776,1.03720642704187,16.3863333606725,19.0126808630984
"Otumba","México",-98.7383925938149,19.6560195066617,17.5455157650352,1.03628347518565,16.3223001036392,18.8466069127486
"Otzoloapan","México",-100.318947170393,19.1080300580814,17.634651743378,1.03788096711266,16.352172098621,19.0102608203651
"Otzolotepec","México",-99.5272923727626,19.4506351303253,17.6600726895707,1.03680929663509,16.4085700996225,18.9986438742504
"Ozumba","México",-98.8096234485238,19.0218876581789,17.6750769119782,1.03743844133937,16.4064969069026,19.0348018466536
"Papalotla","México",-98.8578597022909,19.5598818970068,17.5948131640846,1.03230498450275,16.5006532289691,18.7530622156806
"Polotitlán","México",-99.8316784000178,20.2240779086716,17.6346299418484,1.03788036058841,16.3521687123921,19.0102132068688
"Rayón","México",-99.5670751042103,19.1388795877776,17.641189854325,1.03751943957226,16.3669027425714,19.0115536890536
"San Antonio la Isla","México",-99.5512864809302,19.168882468547,17.6430985538459,1.03737846842388,16.3713533059983,19.0070644971932
"San Felipe del Progreso","México",-99.9825233502568,19.6532170385678,17.6347456538531,1.03787807787373,16.3523753252764,19.0102782201
"San José del Rincón","México",-100.14533050677,19.6195971648677,17.6346641647898,1.03788056732602,16.3521996507717,19.0102628077637
"San Martín de las Pirámides","México",-98.8321945827007,19.7197713002403,17.2329192376643,1.03351571292635,16.0936061017854,18.4099877777011
"San Mateo Atenco","México",-99.5396880090695,19.2655303477155,17.6452399339583,1.03706038502594,16.3841533757364,18.990745381582
"San Simón de Guerrero","México",-100.036871728664,18.9800548192987,17.6346660091217,1.03788022645438,16.3522039165163,19.0102640443677
"Santo Tomás","México",-100.299812912886,19.1796879510411,17.6346521929218,1.03788094512569,16.3521732593804,19.0102608193615
"Soyaniquilpan de Juárez","México",-99.513874376978,20.0518053459448,17.6322170190948,1.03783218326081,16.3511047064831,19.0056744876374
"Sultepec","México",-99.989203379007,18.7346210152621,17.6346578896094,1.03788071773539,16.3521825794929,19.0102639520052
"Tecámac","México",-98.9865078455854,19.705836506252,16.8694331566841,1.02792839311011,15.9276242019157,17.8222627665134
"Tejupilco","México",-100.213091337282,18.8737972437647,17.6346521362135,1.03788094937078,16.3521726866994,19.0102610813937
"Temamatla","México",-98.8837773222667,19.1889326172339,18.0017905910329,1.03429025944294,16.8252891795962,19.2591048303784
"Temascalapa","México",-98.8810687211539,19.8191207392386,16.3886813449607,1.02876648362695,15.4574084090155,17.342586357032
"Temascalcingo","México",-100.037004860334,19.9212574281481,17.6346649041041,1.03788049466091,16.3522031454125,19.0102591443074
"Temascaltepec","México",-99.9965947851722,19.0813623444684,17.6346863026857,1.03787906577511,16.3522559242751,19.0102646470461
"Temoaya","México",-99.6024694667279,19.4849595956916,17.6462857447426,1.03746054701996,16.3763178661775,19.010955415347
"Tenancingo","México",-99.5692202578633,18.9670198607315,17.6374105273339,1.03777355036073,16.3567578044612,19.0116564388293
"Tenango del Aire","México",-98.8701506083359,19.1516371512557,17.8653550276562,1.03553507413112,16.6401524060733,19.1654504732834
"Tenango del Valle","México",-99.6292609564111,19.0816644069729,17.6372438592923,1.03774890096805,16.3575888984187,19.0109948873935
"Teoloyucan","México",-99.1681847919813,19.7622073988872,17.3895179121691,1.0323820062284,16.2955577865245,18.5357382699695
"Teotihuacán","México",-98.8706614997861,19.6863192881932,17.2377292806068,1.03238196756498,16.137672880003,18.360956704014
"Tepetlaoxtoc","México",-98.7654721257037,19.5693824822662,17.6079274413791,1.03569285961947,16.4069221557521,18.8918146470365
"Tepetlixpa","México",-98.8412838969044,19.0099403441855,17.678495003241,1.03738272715991,16.4127159885289,19.0368398423975
"Tepotzotlán","México",-99.3061936819199,19.7252131302946,17.7233706755544,1.03486980758588,16.5298293446592,18.9997574382165
"Tequixquiac","México",-99.1495885140042,19.9046479432163,17.1669161610331,1.033807440526,16.0287980513314,18.3446948940413
"Texcaltitlán","México",-99.9392985474132,18.939564311596,17.6346897879784,1.03787909951838,16.352251121799,19.0102726470309
"Texcalyacac","México",-99.5064291036477,19.1296439998876,17.647871122242,1.03721694924348,16.3794021844163,19.0032806563957
"Texcoco","México",-98.8277922178493,19.4716241966501,17.747029924971,1.03295974603638,16.631264237375,18.9481925475111
"Tezoyuca","México",-98.9310083626662,19.5968652841366,17.5192782045514,1.02920246312664,16.5207626362246,18.5717632493913
"Tianguistenco","México",-99.432163793368,19.1623001990253,17.6708209303714,1.03610496125043,16.43377716788,18.9736405553549
"Timilpan","México",-99.7180415895398,19.8963457821424,17.6350533992519,1.03786191310669,16.3532581439436,19.0100373532362
"Tlalmanalco","México",-98.7319696777355,19.2089023269743,17.7220327857248,1.03696367725242,16.4697438306169,19.0581912848796
"Tlalnepantla de Baz","México",-99.1701463548761,19.5427453248915,18.9551354867182,1.02038166936665,18.22785214343,19.7321864702453
"Tlatlaya","México",-100.257083171313,18.5444826348227,17.6346510140522,1.03788100627405,16.3521702114679,19.0102608100623
"Toluca","México",-99.6664054974013,19.2970886742649,17.637615033913,1.03768951235807,16.3610199251651,19.0094531634053
"Tonanitla","México",-99.0583652236375,19.6818359386014,17.3007460619404,1.02779531932271,16.3634095035216,18.2958678876069
"Tonatico","México",-99.6375592478019,18.7809034876277,17.6349813328543,1.03786974823288,16.352671935212,19.0104537314182
"Tultepec","México",-99.1196483037887,19.6793050500025,17.575359370612,1.02832779483573,16.6095025446164,18.599300736078
"Tultitlán","México",-99.1452884268194,19.6262095047422,18.0126295862753,1.02469978962198,17.1991308148858,18.9283807844573
"Valle de Bravo","México",-100.121950261168,19.1777677499075,17.6346617523412,1.03788043168354,16.3521976936387,19.0102610634373
"Valle de Chalco Solidaridad","México",-98.9483603376543,19.276389314001,19.0641477637789,1.02655936235753,18.1364674320861,20.1173119510323
"Villa de Allende","México",-100.137563722085,19.3872429603488,17.6346650705675,1.03788038825422,16.3522051200505,19.0102613917633
"Villa del Carbón","México",-99.4784326292626,19.7210614153013,17.6621008157499,1.03720000228559,16.4020668580145,19.0145635958562
"Villa Guerrero","México",-99.6877294913264,18.9742990946372,17.6354479231912,1.03784556481841,16.3536539628501,19.0105933012344
"Villa Victoria","México",-99.9921342548284,19.4427502536028,17.634741829443,1.03787727151577,16.3523915722438,19.0102660596387
"Xalatlaco","México",-99.3592706389747,19.1652452232138,17.7267323846861,1.03419360968283,16.5559622420293,18.9627422301807
"Xonacatlán","México",-99.467598732094,19.436951056515,17.6805459700866,1.03570789107285,16.4633368835234,18.9687241020369
"Zacazonapan","México",-100.256110299591,19.0608296260008,17.6346524438883,1.03788092939386,16.3521737722628,19.0102609152227
"Zacualpan","México",-99.8128110457008,18.7158201778574,17.6346879995829,1.03787963258839,16.35223019148,19.0102808083618
"Zinacantepec","México",-99.7977031105797,19.2154040427574,17.6351929364307,1.03784835079764,16.3536374706612,19.0102246804806
"Zumpahuacán","México",-99.5540893454374,18.8001173934875,17.6354648195824,1.03785498731355,16.3533545715554,19.0107534256638
"Zumpango","México",-99.0718205573022,19.8091067884574,16.3188161708353,1.02734236409469,15.4236453118398,17.2188797436556
