"name","name_1","lon","lat","pm25_mean","pm25_sd","pm25_q2.5","pm25_q97.5"
"Álvaro Obregón","Distrito Federal",-99.2468197105554,19.3361755683417,17.2996253657842,1.02088335683954,16.6164055934933,18.0357222620277
"Azcapotzalco","Distrito Federal",-99.1821069383063,19.4853286106988,18.4034719523952,1.02013108112918,17.7146047436118,19.1310736908934
"Benito Juárez","Distrito Federal",-99.1611346406657,19.3806423460731,17.9185148392304,1.02353146698613,17.1181272173699,18.7395513540256
"Coyoacán","Distrito Federal",-99.1503763460519,19.3266672062058,18.0952097143106,1.01470337174323,17.5889385282711,18.6466065917479
"Cuajimalpa de Morelos","Distrito Federal",-99.3107285227553,19.3246343032292,17.6224634422011,1.02665460970675,16.7399178169738,18.5701678938681
"Cuauhtémoc","Distrito Federal",-99.1490557563125,19.4313734281388,17.0374812124753,1.03312364966431,15.9664849174014,18.1146779683908
"Gustavo A. Madero","Distrito Federal",-99.115864206768,19.5040652074179,17.6061262708968,1.02209634807858,16.8484848546065,18.3355852703753
"Iztacalco","Distrito Federal",-99.0943297980616,19.3969118970341,17.3876701889641,1.01717613069335,16.8099679710401,17.9811608659184
"Iztapalapa","Distrito Federal",-99.0567986611672,19.3491632633327,18.3269815942232,1.01875882095536,17.7042431898822,18.9968693929535
"La Magdalena Contreras","Distrito Federal",-99.268412889974,19.2689765065062,17.9229820060793,1.02448841956299,17.1119395876408,18.7983772522718
"Miguel Hidalgo","Distrito Federal",-99.2045669104735,19.4280623718692,17.4845758131787,1.0245327616376,16.6922478773199,18.3620648874328
"Milpa Alta","Distrito Federal",-99.0510954209536,19.1394565988295,18.0237086846897,1.0324041723775,16.9589167467257,19.2032453098434
"Tláhuac","Distrito Federal",-99.0028163014103,19.276994771654,19.5374261978155,1.02222301913792,18.7340176645177,20.3884922607822
"Tlalpan","Distrito Federal",-99.2062207897522,19.1983396650094,18.2017160066098,1.02659426881062,17.2965021882637,19.1873853165705
"Venustiano Carranza","Distrito Federal",-99.0931057950148,19.4304954545038,17.4003376732371,1.01887528178792,16.7717353159971,18.0464760322818
"Xochimilco","Distrito Federal",-99.090363604183,19.2451450441256,18.6618840847124,1.02086436563567,17.9400385563134,19.4387247121644
"Acambay de Ruíz Castañeda","México",-99.8715302596316,19.9729416920453,17.6328597807171,1.0388782119917,16.394020381239,19.0110884590276
"Acolman","México",-98.9198662572085,19.6337761283412,17.3971370981116,1.03127938772838,16.3961184842438,18.4805024126193
"Aculco","México",-99.8333466088885,20.1156764721164,17.6328043050781,1.03887917781716,16.3939360066513,19.0110873840304
"Almoloya de Alquisiras","México",-99.866795535061,18.8329588652449,17.6328668430945,1.03887838698098,16.3940495281725,19.0111707811521
"Almoloya de Juárez","México",-99.8294539481415,19.4055778149158,17.633435430108,1.03885213102558,16.3955617224141,19.0105074545585
"Almoloya del Río","México",-99.4918729889193,19.1587797942465,17.6497083133066,1.0379117507863,16.4314651513247,18.9940421863943
"Amanalco","México",-99.9883931998242,19.2509314813714,17.632882670476,1.03887702470312,16.3941130645267,19.0111131772491
"Amatepec","México",-100.266801523132,18.7029925185393,17.6328189132214,1.03888055931777,16.393912500515,19.0111957940025
"Amecameca","México",-98.7164909764485,19.1249499951642,17.67722019725,1.03840970640648,16.4513503073712,19.0368426046402
"Apaxco","México",-99.1478989237342,19.9845089238364,17.3444822689831,1.03637181351204,16.1735330387742,18.6293458061389
"Atenco","México",-98.9615707804515,19.5456485810611,17.5850379499242,1.02750671617889,16.6725160189201,18.5898273019076
"Atizapán","México",-99.4999751566194,19.1755455565861,17.6485443453875,1.03791299395908,16.4303934656025,18.9925158110194
"Atizapán de Zaragoza","México",-99.2740439886206,19.5648072852275,18.4979225772047,1.02706017865464,17.5341083566035,19.4856276398291
"Atlacomulco","México",-99.8460083814771,19.809957013243,17.6330720844351,1.03887283668432,16.3943955834405,19.0109927749279
"Atlautla","México",-98.7170646729854,19.0311080864578,17.6539038184278,1.03865231519204,16.4217775132121,19.0235836687076
"Axapusco","México",-98.7212962762461,19.763057201737,17.4816709097304,1.03731909935387,16.2850516398748,18.8061293006421
"Ayapango","México",-98.81635586345,19.1242909339143,17.747534144164,1.0376678155228,16.53616103765,19.0969646425781
"Calimaya","México",-99.6432754133488,19.165530453654,17.6356239166122,1.03870116773595,16.4025757935978,19.0075110139726
"Capulhuac","México",-99.4597383125319,19.2087020462631,17.6590756291145,1.03710342185111,16.4545800562422,18.9738206843477
"Chalco","México",-98.8316954377758,19.2536014219007,17.9794156578311,1.03535653872722,16.8067708355781,19.272344914601
"Chapa de Mota","México",-99.5509391080675,19.8257553506514,17.6368305579902,1.03871552529081,16.4012802183521,19.0048128034665
"Chapultepec","México",-99.5504536805964,19.2065058376275,17.6417036808759,1.03825843598999,16.4181670562732,18.9971897017719
"Chiautla","México",-98.8833849409547,19.5730368862626,17.5644032032471,1.03210468370077,16.5410458206694,18.6989299687013
"Chicoloapan","México",-98.8781075843618,19.4054171658694,18.1056528808168,1.02983048247888,17.0968967960731,19.1823614321277
"Chiconcuac","México",-98.8966959211643,19.5562790861199,17.5867019235275,1.03094436914222,16.5864820827215,18.6919221048098
"Chimalhuacán","México",-98.9471670082334,19.4162357325345,18.2736918555032,1.02158943779308,17.503031308716,19.0611964924383
"Coacalco de Berriozábal","México",-99.1023955041119,19.6262899752824,17.7885773578011,1.025617395521,16.9517339185181,18.7088630059435
"Coatepec Harinas","México",-99.7982569400371,18.9463281213227,17.6330160525637,1.03887087562847,16.3945078950758,19.0110623771242
"Cocotitlán","México",-98.8588949802993,19.2260295241873,18.0287461949294,1.03497267157814,16.8651928287758,19.3134840885641
"Coyotepec","México",-99.2222053425533,19.7899844906921,17.5094229997588,1.03540164142601,16.3580544299449,18.762670562672
"Cuautitlán","México",-99.1594239924881,19.7082385932978,17.5760680174931,1.03143104936821,16.5260375521455,18.6797026678741
"Cuautitlán Izcalli","México",-99.2251856363797,19.6545670257982,18.0201881139385,1.03022796052986,16.990445786304,19.0991573209739
"Donato Guerra","México",-100.184843553572,19.3164419825942,17.632825657162,1.03888023262177,16.3939314748846,19.0111881043686
"Ecatepec de Morelos","México",-99.0432117359573,19.5727837336625,17.7876523281206,1.02900877379825,16.8056000150714,18.7936526079295
"Ecatzingo","México",-98.7366496037591,18.9680219599022,17.6465826843691,1.03872595917902,16.4122893633516,19.0192685973019
"El Oro","México",-100.075490532005,19.7988157978863,17.6328372861467,1.03887999081,16.3939483860868,19.0111816278804
"Huehuetoca","México",-99.2550310328557,19.8226285901806,17.5397897527896,1.03658669891146,16.3615868301972,18.8253470628155
"Hueypoxtla","México",-99.0280077529409,19.9524123470462,16.6408152416837,1.03124355607018,15.6516791071612,17.6691218923128
"Huixquilucan","México",-99.3395276021989,19.3831008234713,17.6670037328235,1.02988936743008,16.6698981747662,18.7413035059709
"Isidro Fabela","México",-99.4403760818743,19.5542432813964,17.7340132602431,1.03651710140822,16.5450112230468,19.0346080395499
"Ixtapaluca","México",-98.7790459506046,19.3427969336411,17.8347960604135,1.03613034013055,16.6534028851056,19.1397241595093
"Ixtapan de la Sal","México",-99.6908409961752,18.8506963946608,17.6331623158783,1.03886659415276,16.3948248267474,19.0110845384045
"Ixtapan del Oro","México",-100.277849909034,19.2574263839338,17.6328206471732,1.03888047180475,16.3939175338299,19.0111936836669
"Ixtlahuaca","México",-99.8069629972664,19.5898510213528,17.6337563154497,1.03885179977426,16.3957850621676,19.0106080490374
"Jaltenco","México",-99.0889302302855,19.7387167303917,17.0334976023041,1.02976611291487,16.0911657055719,18.0279250960315
"Jilotepec","México",-99.5965692940081,20.0191028817504,17.6321929168185,1.03885213220466,16.3940598034933,19.0085985403971
"Jilotzingo","México",-99.3904369658594,19.5060472097115,17.8104328222806,1.03422110407195,16.6645516447366,19.0442689721296
"Jiquipilco","México",-99.6416035227432,19.5860372328474,17.6403514056926,1.03867234601455,16.4058542809771,19.0073668036519
"Jocotitlán","México",-99.8234783630356,19.7173348780185,17.6333628269397,1.0388652690638,16.3949255036701,19.0108708518047
"Joquicingo","México",-99.5144815102683,19.0675669920083,17.6420076662632,1.03845731671456,16.4147038520702,19.006087159296
"Juchitepec","México",-98.9040824368945,19.0935939337624,17.7890141324231,1.03704321437811,16.5949755705708,19.1305876654038
"La Paz","México",-98.947698571052,19.3610186169227,19.3764537127842,1.02242677907407,18.5347293937071,20.2606493770491
"Lerma","México",-99.4748581860969,19.3450740541521,17.6548959330651,1.03683111162894,16.4627486561162,18.9582545501203
"Luvianos","México",-100.406484517151,18.940817941276,17.63281880326,1.03888056368394,16.3939122050264,19.0111958078241
"Malinalco","México",-99.4856424500741,18.8819180405939,17.6358834924485,1.03877641671626,16.4006431289338,19.0109877184597
"Melchor Ocampo","México",-99.1335471051927,19.709650133969,17.4635945515684,1.03077333492309,16.4466709523879,18.5297919353968
"Metepec","México",-99.5883660568185,19.2473854569242,17.6389026224378,1.03842721206758,16.4129076155007,18.9998660368294
"Mexicaltzingo","México",-99.5840223991634,19.2112474700394,17.6388887350407,1.03845329463641,16.4121191269983,19.0013682642138
"Morelos","México",-99.6417698962178,19.74343802802,17.6367736209968,1.03877512742958,16.4001259707625,19.0088784821656
"Naucalpan de Juárez","México",-99.2926053942304,19.4712531456005,18.0687972069217,1.02633789262414,17.1744727942528,19.0021914537374
"Nextlalpan","México",-99.0745243874789,19.7299417643226,17.0034964937939,1.02924022084582,16.0823980725332,17.9792157902652
"Nezahualcóyotl","México",-99.0226995164195,19.4225786547758,17.2924298946084,1.01867086564487,16.6464441887373,17.9327430095757
"Nicolás Romero","México",-99.3917279339293,19.6249704994422,17.7831401236048,1.03594465051666,16.6036686778051,19.0652957514095
"Nopaltepec","México",-98.7170891235639,19.812314331908,17.4684147674522,1.0373477080224,16.2704182897248,18.7956667386532
"Ocoyoacac","México",-99.4066406590913,19.2594662306813,17.6762849517403,1.03495702308657,16.5202874531153,18.9211375142106
"Ocuilan","México",-99.3964162925341,19.0092340959872,17.6537411073177,1.03816317920248,16.4319289432414,19.0087263372931
"Otumba","México",-98.7383925938149,19.6560195066617,17.5442732326934,1.03724541536946,16.3458670649909,18.8599041053813
"Otzoloapan","México",-100.318947170393,19.1080300580814,17.6328194730846,1.03888052750193,16.3939142926836,19.0111950121527
"Otzolotepec","México",-99.5272923727626,19.4506351303253,17.6581209215957,1.03780836971526,16.4438644891649,18.9837337721279
"Ozumba","México",-98.8096234485238,19.0218876581789,17.6731451846761,1.03842211068951,16.4472166734143,19.0348284436631
"Papalotla","México",-98.8578597022909,19.5598818970068,17.593945902312,1.03326161530614,16.5113673494578,18.7651526907413
"Polotitlán","México",-99.8316784000178,20.2240779086716,17.6327978259775,1.03887991084917,16.3939089659048,19.0111284315826
"Rayón","México",-99.5670751042103,19.1388795877776,17.6392963195551,1.03850182346625,16.411350974578,19.0043087430561
"San Antonio la Isla","México",-99.5512864809302,19.168882468547,17.6411817565293,1.03835526295326,16.41576059822,19.0007328216512
"San Felipe del Progreso","México",-99.9825233502568,19.6532170385678,17.6329130475317,1.03887764786698,16.3941007989262,19.0111333917007
"San José del Rincón","México",-100.14533050677,19.6195971648677,17.6328318474632,1.03888012879656,16.3939397288676,19.0111861816153
"San Martín de las Pirámides","México",-98.8321945827007,19.7197713002403,17.2332706275474,1.03435419154323,16.136200082618,18.4230646553942
"San Mateo Atenco","México",-99.5396880090695,19.2655303477155,17.6432813727096,1.03803323305717,16.424492464687,18.988906532339
"San Simón de Guerrero","México",-100.036871728664,18.9800548192987,17.6328336174134,1.03887975516945,16.3939599537107,19.0111812656925
"Santo Tomás","México",-100.299812912886,19.1796879510411,17.6328199195161,1.03888050512587,16.3939155837102,19.0111944811979
"Soyaniquilpan de Juárez","México",-99.513874376978,20.0518053459448,17.6303997825778,1.038830570345,16.3928366131185,19.0051368998746
"Sultepec","México",-99.989203379007,18.7346210152621,17.6328255764827,1.03888026372711,16.3939312695609,19.0111925404441
"Tecámac","México",-98.9865078455854,19.705836506252,16.8717579695574,1.02857159512588,15.9788466653345,17.8030213764723
"Tejupilco","México",-100.213091337282,18.8737972437647,17.6328198625086,1.03888050838743,16.3939155226179,19.0111948865178
"Temamatla","México",-98.8837773222667,19.1889326172339,17.9990429018413,1.03516267523732,16.8337093990907,19.2965579403595
"Temascalapa","México",-98.8810687211539,19.8191207392386,16.3931241579218,1.02922691785823,15.4614555432339,17.3147819650574
"Temascalcingo","México",-100.037004860334,19.9212574281481,17.6328326097392,1.03888005803597,16.3939409573697,19.0111791305358
"Temascaltepec","México",-99.9965947851722,19.0813623444684,17.6328537298877,1.03887855590531,16.3940280888203,19.0111551516326
"Temoaya","México",-99.6024694667279,19.4849595956916,17.6444042320139,1.03846064319948,16.4150104930356,19.0016240156909
"Tenancingo","México",-99.5692202578633,18.9670198607315,17.6355599590967,1.03876686421281,16.4006443215883,19.0102431063735
"Tenango del Aire","México",-98.8701506083359,19.1516371512557,17.8629451705037,1.03645246121877,16.676500705819,19.1955716763262
"Tenango del Valle","México",-99.6292609564111,19.0816644069729,17.6353892111844,1.03874196423249,16.4012070426889,19.0090045322739
"Teoloyucan","México",-99.1681847919813,19.7622073988872,17.3891904498808,1.03324068194585,16.291243574262,18.5443866692459
"Teotihuacán","México",-98.8706614997861,19.6863192881932,17.2381484839,1.03321946797064,16.1813953347051,18.3820674672391
"Tepetlaoxtoc","México",-98.7654721257037,19.5693824822662,17.6065889132331,1.03666597751366,16.4275385553562,18.8889570035569
"Tepetlixpa","México",-98.8412838969044,19.0099403441855,17.6765519548877,1.03836371485184,16.4521348510222,19.0365126914416
"Tepotzotlán","México",-99.3061936819199,19.7252131302946,17.7213815654112,1.03587316086238,16.5453305661569,18.9922408300719
"Tequixquiac","México",-99.1495885140042,19.9046479432163,17.1675169703305,1.0346133161112,16.0653314705388,18.3606341558776
"Texcaltitlán","México",-99.9392985474132,18.939564311596,17.6328572059541,1.03887857181833,16.3940322819491,19.0111642797762
"Texcalyacac","México",-99.5064291036477,19.1296439998876,17.6459238659839,1.03818197369016,16.42316690308,19.0000561033897
"Texcoco","México",-98.8277922178493,19.4716241966501,17.7460932288242,1.03389217361872,16.6343620640152,18.9379016970904
"Tezoyuca","México",-98.9310083626662,19.5968652841366,17.5186860556809,1.03010887419338,16.5421134986694,18.5980657980588
"Tianguistenco","México",-99.432163793368,19.1623001990253,17.6686726323551,1.03700769711155,16.4653339152382,18.9830796859217
"Timilpan","México",-99.7180415895398,19.8963457821424,17.6332207826594,1.03886149716476,16.3948551927969,19.0103994817059
"Tlalmanalco","México",-98.7319696777355,19.2089023269743,17.7200713554157,1.03793635228294,16.5024370167811,19.0723452882543
"Tlalnepantla de Baz","México",-99.1701463548761,19.5427453248915,18.9492214910236,1.02138911530131,18.1764848941153,19.7426788742739
"Tlatlaya","México",-100.257083171313,18.5444826348227,17.6328187496632,1.03888056770274,16.3939119934763,19.0111959279658
"Toluca","México",-99.6664054974013,19.2970886742649,17.6357553248018,1.03868449752625,16.4027063671043,19.0061482700829
"Tonanitla","México",-99.0583652236375,19.6818359386014,17.3010388785768,1.02856005052513,16.3980127088882,18.285745083622
"Tonatico","México",-99.6375592478019,18.7809034876277,17.633147190284,1.03886862606647,16.3947198290588,19.011143649536
"Tultepec","México",-99.1196483037887,19.6793050500025,17.5743494863742,1.02918039447366,16.6182693440385,18.5952649108002
"Tultitlán","México",-99.1452884268194,19.6262095047422,18.0097888153491,1.02562742519865,17.1469694924366,18.9492239965433
"Valle de Bravo","México",-100.121950261168,19.1777677499075,17.6328294014532,1.03887997728339,16.3939457903507,19.0111827224529
"Valle de Chalco Solidaridad","México",-98.9483603376543,19.276389314001,19.0584100059884,1.02700677709791,18.1055166042352,20.0755923486673
"Villa de Allende","México",-100.137563722085,19.3872429603488,17.6328327220956,1.03887994185103,16.3939488981261,19.0111813285727
"Villa del Carbón","México",-99.4784326292626,19.7210614153013,17.6602001176869,1.03820506826543,16.4332875574797,19.0002085628307
"Villa Guerrero","México",-99.6877294913264,18.9742990946372,17.6336096292876,1.03884323847435,16.3962393212628,19.0107350614847
"Villa Victoria","México",-99.9921342548284,19.4427502536028,17.6329090745705,1.0388768013945,16.394136998941,19.0111085197986
"Xalatlaco","México",-99.3592706389747,19.1652452232138,17.7242187271914,1.03496680910799,16.5630382102152,18.9763737299536
"Xonacatlán","México",-99.467598732094,19.436951056515,17.6784882435319,1.03670634343785,16.4921710395239,18.9803364880565
"Zacazonapan","México",-100.256110299591,19.0608296260008,17.6328201675765,1.03888048838124,16.3939165662687,19.0111942350138
"Zacualpan","México",-99.8128110457008,18.7158201778574,17.6328555036786,1.03887911425352,16.3940077587351,19.0111853995615
"Zinacantepec","México",-99.7977031105797,19.2154040427574,17.6333556992182,1.03884691490093,16.3957865923973,19.01041726586
"Zumpahuacán","México",-99.5540893454374,18.8001173934875,17.6336282712529,1.03885293168283,16.3958180236609,19.0111347746485
"Zumpango","México",-99.0718205573022,19.8091067884574,16.3236523901558,1.02774475149999,15.4503421616364,17.1906549319446
